[{"name":"Yennora Distribution Centre - Stockland","lat":"-33.85792","lng":"150.9705592"},{"name":"Bunnings Eastern Creek Distribution Centre","lat":"-33.8004707","lng":"150.8492321"},{"name":"BIG W Distribution Service Centre","lat":"-33.9104574","lng":"150.8511729"},{"name":"Best and Less Eastern Creek Distribution Centre","lat":"-33.8010403","lng":"150.8328033"},{"name":"Forrester Distribution Centre - Stockland","lat":"-33.7582153","lng":"150.7729474"},{"name":"Roberts Distribution Centre","lat":"-33.9030955","lng":"151.0653577"},{"name":"Msd Foods Distribution Centre","lat":"-33.930009","lng":"151.0375424"},{"name":"Centenary Distribution Centre","lat":"-33.939808","lng":"150.9353173"},{"name":"NYX Distribution Centre","lat":"-34.0363895","lng":"150.8350057"},{"name":"Jaycar Electronics Group - NSW Distribution Centre","lat":"-33.8077774","lng":"150.8366241"},{"name":"Blacktown Distribution Centre","lat":"-33.7501209","lng":"150.9066744a"},{"name":"ALDI Distribution Centre","lat":"-33.9376451","lng":"150.8716577"},{"name":"UES International Distribution Centre","lat":"-33.7485977","lng":"150.7693291"},{"name":"Best & Less Distribution Centre","lat":"-33.8113408","lng":"150.842446"},{"name":"Chullora Distribution Centre, Building 1","lat":"-33.8998877","lng":"151.0689249"},{"name":"Bourke Road Distribution Centre","lat":"-33.9117762","lng":"151.1929422"},{"name":"Kemps Creek Liquor Distribution Centre (Primary Connect)","lat":"-33.8311938","lng":"150.8026257"},{"name":"Silverwater Distribution Centre","lat":"-33.82852020000001","lng":"151.0522605"},{"name":"Portside Distribution Centre","lat":"-33.9550262","lng":"151.2080616"},{"name":"Southend Distribution Centre","lat":"-33.9178509","lng":"151.1861741"},{"name":"Emeco Group QLD Distribution Centre","lat":"-21.1896911","lng":"149.1686016"},{"name":"CDNA Distributors","lat":"-16.9436595","lng":"145.7613978"},{"name":"CAIRNS DISTRIBUTION","lat":"-16.9337675","lng":"145.770204"},{"name":"Griffin Distributors","lat":"-16.9438657","lng":"145.7493741"},{"name":"Schweppes","lat":"-17.0028199","lng":"145.7448598"},{"name":"Australia Post - Cairns Business Centre","lat":"-16.9423824","lng":"145.7494526"},{"name":"Hyne Timber Cairns Distribution Centre","lat":"-16.9402694","lng":"145.7737261"},{"name":"C.R.Kennedy & Company","lat":"-16.935985","lng":"145.758216"},{"name":"Bunnings Atherton","lat":"-17.2636183","lng":"145.4775551"},{"name":"Flexihire Cairns","lat":"-16.9394486","lng":"145.7663665"},{"name":"Regional Trade Distribution Centre","lat":"-27.561197","lng":"151.792982"},{"name":"Toowoomba Automotive Distribution Centre","lat":"-27.5725253","lng":"151.9465123"},{"name":"Darling Downs Pamphlet Distributors Pty Ltd","lat":"-27.5412945","lng":"151.9523559"},{"name":"Australia Post - Toowoomba Business Centre","lat":"-27.5940427","lng":"151.9508723"},{"name":"Taubmans Trade Distribution Centre Moonah","lat":"-42.8406331","lng":"147.2956321"},{"name":"Australia Post - Hobart Business Centre","lat":"-42.85980199999999","lng":"147.398597"},{"name":"Independant Battery Distributors","lat":"-42.8353936","lng":"147.2913912"},{"name":"Road Runners","lat":"-42.8333729","lng":"147.2656784"},{"name":"Independent Oils Pty Ltd","lat":"-42.8408188","lng":"147.2963061"},{"name":"TasGas Centre","lat":"-42.8349185","lng":"147.2682405"},{"name":"BCF (Boating Camping Fishing) Cambridge","lat":"-42.8339472","lng":"147.4694013"},{"name":"Bellambi Lane Distribution Centre","lat":"-34.3625695","lng":"150.912343"},{"name":"NYX Distribution Centre","lat":"-34.0363895","lng":"150.8350057"},{"name":"Schneider Electric National Distribution Centre","lat":"-34.0051765","lng":"150.8456115"},{"name":"Mazda NSW Distribution Centre","lat":"-34.0431087","lng":"150.8346646"},{"name":"Amart Furniture - NSW Distribution Centre","lat":"-34.0461446","lng":"150.8377676"},{"name":"H.E.D.S Sortation Centre","lat":"-34.5360608","lng":"150.378536"},{"name":"Harper Entertainment Distribution Services","lat":"-34.5650618","lng":"150.3699108"},{"name":"Coles Smeaton Grange","lat":"-34.0411098","lng":"150.7624837"},{"name":"Baby & Toddler Town Distribution Centre Child Restraint Installations","lat":"-34.4395508","lng":"150.8895604"},{"name":"Narellan Delivery Centre","lat":"-34.0389333","lng":"150.7286859"},{"name":"AWH","lat":"-35.05288","lng":"147.4323728"},{"name":"Wagga Catering Equipment","lat":"-35.1188867","lng":"147.3443454"},{"name":"Origin Energy LPG Wagga Wagga","lat":"-35.06880760000001","lng":"147.4076617"},{"name":"Ron Crouch Transport","lat":"-35.1275137","lng":"147.4167996"},{"name":"Griffith Express","lat":"-35.1252888","lng":"147.3985548"},{"name":"The Athlete's Foot Wagga Wagga","lat":"-35.1150209","lng":"147.3697391"},{"name":"Woolworths Distribution Centre","lat":"-19.2495569","lng":"146.739731"},{"name":"Townsville Distribution Precinct","lat":"-19.3776054","lng":"146.8298912"},{"name":"Nick Scali Distribution Centre","lat":"-19.2762956","lng":"146.7632874"},{"name":"Young's Distribution Centre","lat":"-19.270961","lng":"146.754389"},{"name":"Townsville Distribution Precinct","lat":"-19.3770754","lng":"146.8336809"},{"name":"Taubmans Trade Distribution Centre Townsville","lat":"-19.2760165","lng":"146.7643253"},{"name":"TriTech Lubricants Ballarat Distribution Centre","lat":"-37.5360678","lng":"143.8137758"},{"name":"CDB Transport & Warehousing","lat":"-37.5449004","lng":"143.7988739"},{"name":"Australia Post Wendouree Business Hub","lat":"-37.5266862","lng":"143.8460045"},{"name":"M8 Distribution Centre","lat":"-37.7980499","lng":"144.7456512"},{"name":"Brooklyn Distribution Centre - Stockland","lat":"-37.8173573","lng":"144.8529762"},{"name":"Altona Distribution Centre - Stockland","lat":"-37.843769","lng":"144.829904"},{"name":"Target Distribution Centre","lat":"-37.83245429999999","lng":"144.7589223"},{"name":"Bunnings Distribution Centre, Dandenong South","lat":"-38.048434","lng":"145.2431373"},{"name":"FHL Distribution Center","lat":"-37.9009143","lng":"145.2454159"},{"name":"Ep Distribution Centre","lat":"-37.751068","lng":"145.0232297"},{"name":"EH Distribution Centre","lat":"-37.7996768","lng":"145.2509588"},{"name":"GPC Melbourne Distribution Centre","lat":"-37.6773695","lng":"144.9495705"},{"name":"Myer Distribution Warehouse","lat":"-37.8345478","lng":"144.8172716"},{"name":"Pauls Milk Distribution Centre","lat":"-37.714462","lng":"144.859578"},{"name":"Albi Distribution Centre","lat":"-37.8327522","lng":"144.7434234"},{"name":"Better Value Distribution Centre","lat":"-37.9296195","lng":"145.1437128"},{"name":"JB Hi-Fi Melbourne Distribution Centre","lat":"-37.7993781","lng":"144.7456543"},{"name":"Essity Victorian Distribution Centre","lat":"-37.8477857","lng":"144.8285493"},{"name":"Chemist warehouse distribution centre","lat":"-37.7506565","lng":"145.023847"},{"name":"Myer National Distribution Centre","lat":"-37.7617813","lng":"144.7310845"},{"name":"Kmart Distribution Centre","lat":"-37.8420503","lng":"144.7586813"},{"name":"Wyndham Distribution Centre","lat":"-37.8320948","lng":"144.8019837"},{"name":"Springvale Distribution Centre","lat":"-37.937831","lng":"145.141318"},{"name":"M8 Distribution Centre","lat":"-37.7980499","lng":"144.7456512"},{"name":"Brooklyn Distribution Centre - Stockland","lat":"-37.8173573","lng":"144.8529762"},{"name":"Altona Distribution Centre - Stockland","lat":"-37.843769","lng":"144.829904"},{"name":"Target Distribution Centre","lat":"-37.83245429999999","lng":"144.7589223"},{"name":"Myer Distribution Warehouse","lat":"-37.8345478","lng":"144.8172716"},{"name":"Pauls Milk Distribution Centre","lat":"-37.714462","lng":"144.859578"},{"name":"Albi Distribution Centre","lat":"-37.8327522","lng":"144.7434234"},{"name":"JB Hi-Fi Melbourne Distribution Centre","lat":"-37.7993781","lng":"144.7456543"},{"name":"Essity Victorian Distribution Centre","lat":"-37.8477857","lng":"144.8285493"},{"name":"Myer National Distribution Centre","lat":"-37.7617813","lng":"144.7310845"},{"name":"Kmart Distribution Centre","lat":"-37.8420503","lng":"144.7586813"},{"name":"Cotton On Distribution Centre","lat":"-38.0185983","lng":"144.4874074"},{"name":"Wyndham Distribution Centre","lat":"-37.8320948","lng":"144.8019837"},{"name":"Woolworths Melbourne Fresh Distribution Centre","lat":"-37.8307144","lng":"144.7636767"},{"name":"KeyWest Distribution Centre - Stockland","lat":"-37.7993781","lng":"144.7456543"},{"name":"Encore Tissue Distribution Centre","lat":"-37.8201309","lng":"144.7576849"},{"name":"Warehouse and Distribution Centre","lat":"-38.1956615","lng":"144.2967148"},{"name":"Coles Distribution Centre Truganina","lat":"-37.8247041","lng":"144.73703"},{"name":"Independent Hardware Group Vic State Office / Distribution Centre","lat":"-37.7584595","lng":"144.7281136"},{"name":"Catch.com.au Distribution Centre - T1","lat":"-37.8095972","lng":"144.746127"},{"name":"Distribution Direct","lat":"-12.4617113","lng":"130.9666683"},{"name":"Taubmans Trade Distribution Centre Darwin","lat":"-12.4264488","lng":"130.891999"},{"name":"Moore Marketing & Distribution Agents for Expanda Stand","lat":"-12.4456947","lng":"130.8425387"},{"name":"INPEX Australia","lat":"-12.4639284","lng":"130.8398278"},{"name":"Harvey Distributors","lat":"-12.4266006","lng":"130.8716053"},{"name":"bp Truckstop","lat":"-12.4581778","lng":"130.9420643"},{"name":"Vehicle Inspection Facility","lat":"-12.4568589","lng":"130.939058"},{"name":"Palmerston Post Delivery Centre / Parcel Locker","lat":"-12.4795611","lng":"130.9833719"},{"name":"BCF (Boating Camping Fishing) Darwin","lat":"-12.391603","lng":"130.8579364"},{"name":"Bendigo Distribution Services","lat":"-36.749469","lng":"144.305741"},{"name":"Bendigo Aluminium Centre","lat":"-36.7068276","lng":"144.317556"},{"name":"JAS Oceania","lat":"-36.7742297","lng":"144.2723846"},{"name":"Australia Post - Bendigo Business Centre","lat":"-36.7744803","lng":"144.2717609"},{"name":"SA Health Distribution Centre","lat":"-34.8365581","lng":"138.6035601"},{"name":"Port Adelaide Distribution Park","lat":"-34.8416484","lng":"138.515635"},{"name":"BevChain Distribution Centre","lat":"-34.8297653","lng":"138.5210266"},{"name":"Coles Distribution Centre","lat":"-34.72502800000001","lng":"138.627152"},{"name":"Santos Regional Distribution Center","lat":"-34.8320752","lng":"138.5143518"},{"name":"Explore Industries - South Australian Distribution Centre","lat":"-34.7248679","lng":"138.6096701"},{"name":"Awf Group Distribution Centre","lat":"-34.7818142","lng":"138.6331917"},{"name":"Drakes Distribution Centre (SA)","lat":"-34.7002353","lng":"138.6519774"},{"name":"Inghams Distribution Centre","lat":"-34.7298473","lng":"138.6355358"},{"name":"Aldi Distribution Centre","lat":"-34.8522366","lng":"138.5755767"},{"name":"Lifeblood Adelaide Distribution Centre","lat":"-34.9096537","lng":"138.5698029"},{"name":"24th street distribution centre","lat":"-34.7831965","lng":"138.6534816"},{"name":"R.M. Williams Distribution Centre","lat":"-34.7863899","lng":"138.6496623"},{"name":"ARDC Gatehouse","lat":"-34.8391684","lng":"138.6090953"},{"name":"Adelaide Warehouse & Distribution Services","lat":"-34.9444526","lng":"138.5469097"},{"name":"Templar Distribution SA","lat":"-34.9215357","lng":"138.5721438"},{"name":"Nick Scali Distribution Centre","lat":"-34.7194279","lng":"138.6025115"},{"name":"Haigh's Chocolates Distribution Centre","lat":"-34.9373219","lng":"138.577402"},{"name":"Laminex Distribution Centre Adelaide","lat":"-34.8458258","lng":"138.5546794"},{"name":"Coca-Cola EuroPacific Partners, Salisbury Distribution and Equipment Services Centre","lat":"-34.778081","lng":"138.6429084"},{"name":"M8 Distribution Centre","lat":"-37.7980499","lng":"144.7456512"},{"name":"Somerton Distribution Centre - Stockland","lat":"-37.6419258","lng":"144.959259"},{"name":"Brooklyn Distribution Centre - Stockland","lat":"-37.8173573","lng":"144.8529762"},{"name":"Altona Distribution Centre - Stockland","lat":"-37.843769","lng":"144.829904"},{"name":"Target Distribution Centre","lat":"-37.83245429999999","lng":"144.7589223"},{"name":"Bunnings Distribution Centre, Dandenong South","lat":"-38.048434","lng":"145.2431373"},{"name":"FHL Distribution Center","lat":"-37.9009143","lng":"145.2454159"},{"name":"Ep Distribution Centre","lat":"-37.751068","lng":"145.0232297"},{"name":"H&B Distribution Centre","lat":"-37.6408269","lng":"144.9562327"},{"name":"EH Distribution Centre","lat":"-37.7996768","lng":"145.2509588"},{"name":"GPC Melbourne Distribution Centre","lat":"-37.6773695","lng":"144.9495705"},{"name":"Myer Distribution Warehouse","lat":"-37.8345478","lng":"144.8172716"},{"name":"Pauls Milk Distribution Centre","lat":"-37.714462","lng":"144.859578"},{"name":"Albi Distribution Centre","lat":"-37.8327522","lng":"144.7434234"},{"name":"Better Value Distribution Centre","lat":"-37.9296195","lng":"145.1437128"},{"name":"JB Hi-Fi Melbourne Distribution Centre","lat":"-37.7993781","lng":"144.7456543"},{"name":"Essity Victorian Distribution Centre","lat":"-37.8477857","lng":"144.8285493"},{"name":"Chemist warehouse distribution centre","lat":"-37.7506565","lng":"145.023847"},{"name":"Myer National Distribution Centre","lat":"-37.7617813","lng":"144.7310845"},{"name":"Kmart Distribution Centre","lat":"-37.8420503","lng":"144.7586813"},{"name":"Fraser Coast Distribution Centre","lat":"-25.4840545","lng":"152.6640625"},{"name":"Narayan Distribution","lat":"-25.309798","lng":"152.8330674"},{"name":"The Gas Cylinder","lat":"-25.2848956","lng":"152.8468389"},{"name":"Australia Post - Bundaberg Post Shop","lat":"-24.8659263","lng":"152.3481182"},{"name":"Lifeline","lat":"-24.8903828","lng":"152.3509109"},{"name":"Coles - 9711GR - Launceston Distribution Centre","lat":"-41.4508671","lng":"147.1433907"},{"name":"Hafele Distribution Centre","lat":"-41.4717238","lng":"147.1381951"},{"name":"Statewide Independent Wholesalers Ltd","lat":"-41.5383521","lng":"147.1905694"},{"name":"Launceston Parcel Centre; Australia Post","lat":"-41.4385004","lng":"147.1764013"},{"name":"Elgas Launceston","lat":"-41.5466007","lng":"147.1959186"},{"name":"FedEx Station","lat":"-41.53930159999999","lng":"147.1973945"},{"name":"Australia Post - St Leonards LPO","lat":"-41.458385","lng":"147.2006451"},{"name":"Woolworths Launceston","lat":"-41.4406743","lng":"147.1371417"},{"name":"Myer Distribution Centre","lat":"-31.9841308","lng":"115.9560241"},{"name":"Bunnings Distribution Centre","lat":"-32.0300359","lng":"116.0007059"},{"name":"Kmart WA Distribution Centre","lat":"-32.0938536","lng":"115.8640319"},{"name":"Boc Distribution Centre","lat":"-32.068712","lng":"115.9232245"},{"name":"Coles Distribution Centre","lat":"-31.9615843","lng":"115.9730768"},{"name":"MRL Distribution Centre","lat":"-31.9466337","lng":"115.9901304"},{"name":"The Reject Shop Distribution Centre","lat":"-31.9211807","lng":"115.9966583"},{"name":"Asahi Distribution Centre","lat":"-31.9889892","lng":"115.9425641"},{"name":"Spudshed Distribution Centre","lat":"-32.0587474","lng":"115.7838321"},{"name":"Tl Parts Distribution Centre","lat":"-31.9905356","lng":"115.9479988"},{"name":"Woolworths Perth Distribution Centre","lat":"-31.9737121","lng":"115.9703852"},{"name":"JB Hi-Fi Perth Distribution Centre","lat":"-31.9883855","lng":"115.9763321"},{"name":"ALDI Distribution Centre","lat":"-32.0867922","lng":"115.8724417"},{"name":"Altronics Distribution Centre","lat":"-31.85906229999999","lng":"115.8073416"},{"name":"Emprise Mobility Warehouse and Distribution","lat":"-32.0955849","lng":"115.8004844"},{"name":"Amazon Fulfilment Centre","lat":"-31.9581588","lng":"115.9763196"},{"name":"Veale Auto Parts Distribution Centre","lat":"-31.9144216","lng":"115.930666"},{"name":"Myaree Ceramics Distribution Centre","lat":"-32.1045339","lng":"115.7983244"},{"name":"HB Distribution","lat":"-31.9157716","lng":"115.9670065"},{"name":"Independent Hardware Group WA State Office / Distribution Centre","lat":"-31.9885975","lng":"115.976651"},{"name":"Willawong Distribution Centre - Stockland","lat":"-27.6026963","lng":"153.0116432"},{"name":"Myer Distribution Centre","lat":"-27.5856665","lng":"152.9514326"},{"name":"Bunnings QLD Distribution Centre","lat":"-27.4267012","lng":"153.1395124"},{"name":"Super Retail Group Distribution Centre","lat":"-27.3102613","lng":"152.9735404"},{"name":"Yatala Distribution Centre - Stockland","lat":"-27.7521689","lng":"153.2328207"},{"name":"Bunnings Distribution Centre","lat":"-27.6940911","lng":"153.0747856"},{"name":"Coles Distribution Centre","lat":"-27.5933817","lng":"152.8717768"},{"name":"Coles Distribution Centre","lat":"-27.6450741","lng":"152.9831997"},{"name":"Coles","lat":"-27.6535669","lng":"153.0342638"},{"name":"Loganlea Distribution Centre","lat":"-27.6667302","lng":"153.1227773"},{"name":"Export Distribution Centre - Stockland","lat":"-27.424722","lng":"153.093971"},{"name":"Woolworths Brisbane Regional Distribution Centre","lat":"-27.6464787","lng":"153.0073864"},{"name":"Kmart Distribution Centre","lat":"-27.4306187","lng":"153.1483782"},{"name":"Grydale Distribution Centre","lat":"-27.3084172","lng":"152.9761264"},{"name":"The Reject Shop Distribution Centre","lat":"-27.5897407","lng":"152.8182525"},{"name":"Bing Lee Queensland Distribution Centre","lat":"-27.6615464","lng":"153.132787"},{"name":"JB Hi-Fi Brisbane Distribution Centre","lat":"-27.648672","lng":"153.0976616"},{"name":"Queensland Distribution Centre","lat":"-27.7361085","lng":"153.2224113"},{"name":"Isuzu Distribution Centre","lat":"-27.5753495","lng":"152.9702376"},{"name":"Burson Auto Parts Distribution Centre","lat":"-27.4411237","lng":"153.137675"},{"name":"UES International Distribution Centre","lat":"-33.7485977","lng":"150.7693291"},{"name":"Blacktown Distribution Centre","lat":"-33.7501209","lng":"150.9066744"},{"name":"JB Hi Fi","lat":"-33.723512","lng":"150.8331713"},{"name":"Woolworths Wyong RDC","lat":"-33.2373204","lng":"151.4239073"},{"name":"JB Hi Fi","lat":"-33.7185958","lng":"150.8406622"},{"name":"ARTC Broadmeadow Distribution Centre","lat":"-32.9262255","lng":"151.7230438"},{"name":"TJX Australia Processing Centre","lat":"-33.7188905","lng":"150.8229166"},{"name":"Australia Post Delivery Centre","lat":"-33.6971319","lng":"151.1145208"},{"name":"Linfox Food Services Distribution","lat":"-33.3274989","lng":"151.4126963"},{"name":"Regency Distribution Services","lat":"-33.7482725","lng":"150.9018533"},{"name":"Alliance Distribution Services","lat":"-33.3188456","lng":"151.423521"},{"name":"Amazon Delivery Station (XNC1)","lat":"-32.8800675","lng":"151.7278782"},{"name":"Device Technologies (National Distribution Centre)","lat":"-33.7214205","lng":"150.8256216"},{"name":"Smile Direct Club Distribution Centre","lat":"-33.6399273","lng":"151.1333535"},{"name":"Harvey Norman Warehouse","lat":"-33.6766231","lng":"151.286708"},{"name":"Sweet Street Wholesale / Darrell Lea Central Coast & Newcastle Distribution Centre","lat":"-33.2413445","lng":"151.4959272"},{"name":"JB HI-FI Newcastle Distribution Centre","lat":"-32.8013339","lng":"151.6300198"},{"name":"ARTC Telarah Distribution Centre","lat":"-32.73373910000001","lng":"151.5398523"},{"name":"Woolworths Wyong RDC","lat":"-33.2373204","lng":"151.4239073"},{"name":"ARTC Broadmeadow Distribution Centre","lat":"-32.9262255","lng":"151.7230438"},{"name":"Ironman 4x4 Newcastle (Distribution Centre)","lat":"-32.81330500000001","lng":"151.6240887"},{"name":"Linfox Food Services Distribution","lat":"-33.3274989","lng":"151.4126963"},{"name":"Alliance Distribution Services","lat":"-33.3188456","lng":"151.423521"},{"name":"Amazon Delivery Station (XNC1)","lat":"-32.8800675","lng":"151.7278782"},{"name":"Sweet Street Wholesale / Darrell Lea Central Coast & Newcastle Distribution Centre","lat":"-33.2413445","lng":"151.4959272"},{"name":"Australia Post - Hunter Business Centre","lat":"-32.8909217","lng":"151.7161886"},{"name":"Australia Post - Tuggerah Business Centre","lat":"-33.3179207","lng":"151.4187707"},{"name":"Daikin Trade","lat":"-32.9141428","lng":"151.7560991"},{"name":"Hyne Timber Newcastle Distribution Centre","lat":"-32.8943899","lng":"151.6002389"},{"name":"Willawong Distribution Centre - Stockland","lat":"-27.6026963","lng":"153.0116432"},{"name":"Myer Distribution Centre","lat":"-27.5856665","lng":"152.9514326"},{"name":"Yatala Distribution Centre - Stockland","lat":"-27.7521689","lng":"153.2328207"},{"name":"Bunnings Distribution Centre","lat":"-27.6940911","lng":"153.0747856"},{"name":"Coles Distribution Centre","lat":"-27.6450741","lng":"152.9831997"},{"name":"Coles","lat":"-27.6535669","lng":"153.0342638"},{"name":"Loganlea Distribution Centre","lat":"-27.6667302","lng":"153.1227773"},{"name":"Woolworths Brisbane Regional Distribution Centre","lat":"-27.6464787","lng":"153.0073864"},{"name":"Bing Lee Queensland Distribution Centre","lat":"-27.6615464","lng":"153.132787"},{"name":"JB Hi-Fi Brisbane Distribution Centre","lat":"-27.648672","lng":"153.0976616"},{"name":"Queensland Distribution Centre","lat":"-27.7361085","lng":"153.2224113"},{"name":"Isuzu Distribution Centre","lat":"-27.5753495","lng":"152.9702376"},{"name":"Bradman Distribution Centre","lat":"-27.593111","lng":"153.0375671"},{"name":"Aldi Distribution Warehouse","lat":"-27.7497004","lng":"153.2408737"},{"name":"Beenleigh Distribution Centre","lat":"-27.5775226","lng":"153.0387178"},{"name":"SLA DISTRIBUTION CENTRE","lat":"-27.5752795","lng":"152.9700298"},{"name":"Independent Hardware Group QLD State Office / Distribution Centre","lat":"-27.6547336","lng":"153.0828399"},{"name":"IGA Distribution","lat":"-27.6888973","lng":"153.0767963"},{"name":"Woolworths Warehouse","lat":"-27.7302972","lng":"153.2418999"},{"name":"Armstrong Flooring QLD Distribution Centre","lat":"-27.6855222","lng":"153.0693087"},{"name":"Willawong Distribution Centre - Stockland","lat":"-27.6026963","lng":"153.0116432"},{"name":"Myer Distribution Centre","lat":"-27.5856665","lng":"152.9514326"},{"name":"Bunnings QLD Distribution Centre","lat":"-27.4267012","lng":"153.1395124"},{"name":"Super Retail Group Distribution Centre","lat":"-27.3102613","lng":"152.9735404"},{"name":"Yatala Distribution Centre - Stockland","lat":"-27.7521689","lng":"153.2328207"},{"name":"Bunnings Distribution Centre","lat":"-27.6940911","lng":"153.0747856"},{"name":"Coles Distribution Centre","lat":"-27.5933817","lng":"152.8717768"},{"name":"Coles Distribution Centre","lat":"-27.6450741","lng":"152.9831997"},{"name":"Coles","lat":"-27.6535669","lng":"153.0342638"},{"name":"Loganlea Distribution Centre","lat":"-27.6667302","lng":"153.1227773"},{"name":"Export Distribution Centre - Stockland","lat":"-27.424722","lng":"153.093971"},{"name":"Woolworths Brisbane Regional Distribution Centre","lat":"-27.6464787","lng":"153.0073864"},{"name":"Kmart Distribution Centre","lat":"-27.4306187","lng":"153.1483782"},{"name":"Grydale Distribution Centre","lat":"-27.3084172","lng":"152.9761264"},{"name":"The Reject Shop Distribution Centre","lat":"-27.5897407","lng":"152.8182525"},{"name":"Bing Lee Queensland Distribution Centre","lat":"-27.6615464","lng":"153.132787"},{"name":"JB Hi-Fi Brisbane Distribution Centre","lat":"-27.648672","lng":"153.0976616"},{"name":"Queensland Distribution Centre","lat":"-27.7361085","lng":"153.2224113"},{"name":"Isuzu Distribution Centre","lat":"-27.5753495","lng":"152.9702376"},{"name":"Burson Auto Parts Distribution Centre","lat":"-27.4411237","lng":"153.137675"},{"name":"Vinnies Distribution Centre - Mitchell","lat":"-35.2166737","lng":"149.1392047"},{"name":"National Mailing & Marketing Pty Ltd,","lat":"-35.3976414","lng":"149.1608055"},{"name":"CBR Store and Supply","lat":"-35.3958513","lng":"149.1619325"},{"name":"PFD Food Services","lat":"-35.3233525","lng":"149.1569831"},{"name":"ActewAGL","lat":"-35.277762","lng":"149.131115"},{"name":"Australia Post - North Canberra Business Centre","lat":"-35.210138","lng":"149.1443583"},{"name":"Origin Energy LPG Canberra","lat":"-35.3413114","lng":"149.222631"},{"name":"Somerton Distribution Centre - Stockland","lat":"-37.6419258","lng":"144.959259"},{"name":"Bunnings Distribution Centre, Dandenong South","lat":"-38.048434","lng":"145.2431373"},{"name":"FHL Distribution Center","lat":"-37.9009143","lng":"145.2454159"},{"name":"Ep Distribution Centre","lat":"-37.751068","lng":"145.0232297"},{"name":"H&B Distribution Centre","lat":"-37.6408269","lng":"144.9562327"},{"name":"EH Distribution Centre","lat":"-37.7996768","lng":"145.2509588"},{"name":"GPC Melbourne Distribution Centre","lat":"-37.6773695","lng":"144.9495705"},{"name":"Better Value Distribution Centre","lat":"-37.9296195","lng":"145.1437128"},{"name":"Chemist warehouse distribution centre","lat":"-37.7506565","lng":"145.023847"},{"name":"Springvale Distribution Centre","lat":"-37.937831","lng":"145.141318"},{"name":"Westall Distribution Centre","lat":"-37.9322568","lng":"145.1427087"},{"name":"ALDI Distribution Centre Dandenong south","lat":"-38.0368231","lng":"145.2185377"},{"name":"Australia Post Bayswater Distribution Centre","lat":"-37.8504494","lng":"145.2826627"},{"name":"KFL Supermarkets Distribution Centre - Head Office","lat":"-37.974749","lng":"145.2084"},{"name":"Rowville Newspaper Distribution Centre","lat":"-37.9108141","lng":"145.2455784"},{"name":"Bing Lee Melbourne Distribution Centre","lat":"-38.0295435","lng":"145.2177789"},{"name":"Womersleys Mitre 10 Distribution Centre","lat":"-38.0956774","lng":"145.1609705"},{"name":"Schneider Electric Distribution Centre","lat":"-38.0534057","lng":"145.2341156"},{"name":"GHPL. Coles SOMERTON DC","lat":"-37.6394065","lng":"144.943903"},{"name":"Tranzport Distribution Centre","lat":"-37.8244841","lng":"144.9245284"}]