[
  {
    "city": "Sydney", 
    "lat": "-33.8678", 
    "lng": "151.2100", 
    "country": "Australia", 
    "iso2": "AU", 
    "admin_name": "New South Wales", 
    "capital": "admin", 
    "population": "4840600", 
    "population_proper": "4840600"
  }, 
  {
    "city": "Melbourne", 
    "lat": "-37.8142", 
    "lng": "144.9631", 
    "country": "Australia", 
    "iso2": "AU", 
    "admin_name": "Victoria", 
    "capital": "admin", 
    "population": "4529500", 
    "population_proper": "4529500"
  }, 
  {
    "city": "Brisbane", 
    "lat": "-27.4678", 
    "lng": "153.0281", 
    "country": "Australia", 
    "iso2": "AU", 
    "admin_name": "Queensland", 
    "capital": "admin", 
    "population": "2360241", 
    "population_proper": "2360241"
  }, 
  {
    "city": "Perth", 
    "lat": "-31.9559", 
    "lng": "115.8606", 
    "country": "Australia", 
    "iso2": "AU", 
    "admin_name": "Western Australia", 
    "capital": "admin", 
    "population": "2141834", 
    "population_proper": "2141834"
  }, 
  {
    "city": "Adelaide", 
    "lat": "-34.9275", 
    "lng": "138.6000", 
    "country": "Australia", 
    "iso2": "AU", 
    "admin_name": "South Australia", 
    "capital": "admin", 
    "population": "1295714", 
    "population_proper": "1295714"
  }, 
  {
    "city": "Gold Coast", 
    "lat": "-28.0167", 
    "lng": "153.4000", 
    "country": "Australia", 
    "iso2": "AU", 
    "admin_name": "Queensland", 
    "capital": "", 
    "population": "638090", 
    "population_proper": "638090"
  }, 
  {
    "city": "Cranbourne", 
    "lat": "-38.0996", 
    "lng": "145.2834", 
    "country": "Australia", 
    "iso2": "AU", 
    "admin_name": "Victoria", 
    "capital": "", 
    "population": "460491", 
    "population_proper": "460491"
  }, 
  {
    "city": "Canberra", 
    "lat": "-35.2931", 
    "lng": "149.1269", 
    "country": "Australia", 
    "iso2": "AU", 
    "admin_name": "Australian Capital Territory", 
    "capital": "primary", 
    "population": "381488", 
    "population_proper": "381488"
  }, 
  {
    "city": "Central Coast", 
    "lat": "-33.3000", 
    "lng": "151.2000", 
    "country": "Australia", 
    "iso2": "AU", 
    "admin_name": "New South Wales", 
    "capital": "", 
    "population": "346596", 
    "population_proper": "346596"
  }, 
  {
    "city": "Wollongong", 
    "lat": "-34.4331", 
    "lng": "150.8831", 
    "country": "Australia", 
    "iso2": "AU", 
    "admin_name": "New South Wales", 
    "capital": "", 
    "population": "261896", 
    "population_proper": "261896"
  }, 
  {
    "city": "Hobart", 
    "lat": "-42.8806", 
    "lng": "147.3250", 
    "country": "Australia", 
    "iso2": "AU", 
    "admin_name": "Tasmania", 
    "capital": "admin", 
    "population": "222356", 
    "population_proper": "222356"
  }, 
  {
    "city": "Geelong", 
    "lat": "-38.1500", 
    "lng": "144.3500", 
    "country": "Australia", 
    "iso2": "AU", 
    "admin_name": "Victoria", 
    "capital": "", 
    "population": "184182", 
    "population_proper": "184182"
  }, 
  {
    "city": "Townsville", 
    "lat": "-19.2500", 
    "lng": "146.8167", 
    "country": "Australia", 
    "iso2": "AU", 
    "admin_name": "Queensland", 
    "capital": "", 
    "population": "178649", 
    "population_proper": "173724"
  }, 
  {
    "city": "Ipswich", 
    "lat": "-27.6167", 
    "lng": "152.7667", 
    "country": "Australia", 
    "iso2": "AU", 
    "admin_name": "Queensland", 
    "capital": "", 
    "population": "163000", 
    "population_proper": "163000"
  }, 
  {
    "city": "Newcastle", 
    "lat": "-32.9167", 
    "lng": "151.7500", 
    "country": "Australia", 
    "iso2": "AU", 
    "admin_name": "New South Wales", 
    "capital": "", 
    "population": "152984", 
    "population_proper": "152984"
  }, 
  {
    "city": "Cairns", 
    "lat": "-16.9200", 
    "lng": "145.7800", 
    "country": "Australia", 
    "iso2": "AU", 
    "admin_name": "Queensland", 
    "capital": "", 
    "population": "146778", 
    "population_proper": "146778"
  }, 
  {
    "city": "Darwin", 
    "lat": "-12.4381", 
    "lng": "130.8411", 
    "country": "Australia", 
    "iso2": "AU", 
    "admin_name": "Northern Territory", 
    "capital": "admin", 
    "population": "136828", 
    "population_proper": "136828"
  }, 
  {
    "city": "Toowoomba", 
    "lat": "-27.5667", 
    "lng": "151.9500", 
    "country": "Australia", 
    "iso2": "AU", 
    "admin_name": "Queensland", 
    "capital": "", 
    "population": "135631", 
    "population_proper": "108398"
  }, 
  {
    "city": "Launceston", 
    "lat": "-41.4419", 
    "lng": "147.1450", 
    "country": "Australia", 
    "iso2": "AU", 
    "admin_name": "Tasmania", 
    "capital": "", 
    "population": "106153", 
    "population_proper": "106153"
  }, 
  {
    "city": "Ballarat", 
    "lat": "-37.5608", 
    "lng": "143.8475", 
    "country": "Australia", 
    "iso2": "AU", 
    "admin_name": "Victoria", 
    "capital": "", 
    "population": "98543", 
    "population_proper": "98543"
  }, 
  {
    "city": "Bendigo", 
    "lat": "-36.7500", 
    "lng": "144.2667", 
    "country": "Australia", 
    "iso2": "AU", 
    "admin_name": "Victoria", 
    "capital": "", 
    "population": "95587", 
    "population_proper": "95587"
  }, 
  {
    "city": "Mackay", 
    "lat": "-21.1411", 
    "lng": "149.1858", 
    "country": "Australia", 
    "iso2": "AU", 
    "admin_name": "Queensland", 
    "capital": "", 
    "population": "72900", 
    "population_proper": "72900"
  }, 
  {
    "city": "Wagga Wagga", 
    "lat": "-35.1189", 
    "lng": "147.3689", 
    "country": "Australia", 
    "iso2": "AU", 
    "admin_name": "New South Wales", 
    "capital": "", 
    "population": "67364", 
    "population_proper": "67364"
  }, 
  {
    "city": "Hervey Bay", 
    "lat": "-25.2900", 
    "lng": "152.8400", 
    "country": "Australia", 
    "iso2": "AU", 
    "admin_name": "Queensland", 
    "capital": "", 
    "population": "54674", 
    "population_proper": "54674"
  }, 
  {
    "city": "Pakenham", 
    "lat": "-38.0712", 
    "lng": "145.4878", 
    "country": "Australia", 
    "iso2": "AU", 
    "admin_name": "Victoria", 
    "capital": "", 
    "population": "46421", 
    "population_proper": "46421"
  }
]